[
  {
    "id": 2,
    "alias": "almaty",
    "name": "Алматы",
    "lat": 43.2859,
    "lon": 76.9129,
    "zoom": 11,
    "type": "city",
    "hasComplexes": true,
    "label": "Все районы",
    "selected": true,
    "children": [
      {
        "id": 3,
        "alias": "almaty-alatauskij",
        "name": "Алатауский р-н",
        "lat": 43.2813,
        "lon": 76.852,
        "zoom": 13,
        "type": "district",
        "hasComplexes": false,
        "label": "Все микрорайоны",
        "selected": true,
        "children": [
          {
            "id": 3364,
            "alias": "13-j-mikrorajon",
            "name": "13-й микрорайон",
            "lat": 43.2811,
            "lon": 76.8104,
            "zoom": 16,
            "hasChildren": false,
            "hasComplexes": false,
            "hasStreet": false,
            "isBigCity": false,
            "type": "microdistrict",
            "parentId": 3,
            "level": 4,
            "children": []
          },
          {
            "id": 3941,
            "alias": "daraboz",
            "name": "Дарабоз",
            "lat": 43.2737,
            "lon": 76.8205,
            "zoom": 15,
            "hasChildren": false,
            "hasComplexes": false,
            "hasStreet": false,
            "isBigCity": false,
            "type": "microdistrict",
            "parentId": 3,
            "level": 4,
            "children": []
          },
          {
            "id": 4,
            "alias": "almaty-alatauskij-mkr-6-gradokompleks",
            "name": "мкр 6-й градокомплекс",
            "lat": 43.2994,
            "lon": 76.8432,
            "zoom": 13,
            "hasChildren": false,
            "hasComplexes": false,
            "hasStreet": false,
            "isBigCity": false,
            "type": "microdistrict",
            "parentId": 3,
            "level": 4,
            "children": []
          },
          {
            "id": 3279,
            "alias": "mkr-71-j-razezd",
            "name": "мкр 71-й разъезд",
            "lat": 43.3509,
            "lon": 76.8187,
            "zoom": 16,
            "hasChildren": false,
            "hasComplexes": false,
            "hasStreet": false,
            "isBigCity": false,
            "type": "microdistrict",
            "parentId": 3,
            "level": 4,
            "children": []
          },
          {
            "id": 5,
            "alias": "almaty-alatauskij-mkr-adk",
            "name": "мкр АДК",
            "lat": 43.3159,
            "lon": 76.8162,
            "zoom": 12,
            "hasChildren": false,
            "hasComplexes": false,
            "hasStreet": false,
            "isBigCity": false,
            "type": "microdistrict",
            "parentId": 3,
            "level": 4,
            "children": []
          },
          {
            "id": 6,
            "alias": "almaty-alatauskij-mkr-ajgerim-1",
            "name": "мкр Айгерим-1",
            "lat": 43.2809,
            "lon": 76.8463,
            "zoom": 15,
            "hasChildren": false,
            "hasComplexes": false,
            "hasStreet": false,
            "isBigCity": false,
            "type": "microdistrict",
            "parentId": 3,
            "level": 4,
            "children": []
          },
          {
            "id": 7,
            "alias": "almaty-alatauskij-mkr-ajgerim-2",
            "name": "мкр Айгерим-2",
            "lat": 43.2701,
            "lon": 76.8406,
            "zoom": 15,
            "hasChildren": false,
            "hasComplexes": false,
            "hasStreet": false,
            "isBigCity": false,
            "type": "microdistrict",
            "parentId": 3,
            "level": 4,
            "children": []
          },
          {
            "id": 8,
            "alias": "almaty-alatauskij-mkr-akbulak",
            "name": "мкр Акбулак",
            "lat": 43.2569,
            "lon": 76.8315,
            "zoom": 15,
            "hasChildren": false,
            "hasComplexes": false,
            "hasStreet": false,
            "isBigCity": false,
            "type": "microdistrict",
            "parentId": 3,
            "level": 4,
            "children": []
          },
          {
            "id": 1209,
            "alias": "akkent",
            "name": "мкр Аккент",
            "lat": 43.246,
            "lon": 76.8149,
            "zoom": 15,
            "hasChildren": false,
            "hasComplexes": false,
            "hasStreet": false,
            "isBigCity": false,
            "type": "microdistrict",
            "parentId": 3,
            "level": 4,
            "children": []
          },
          {
            "id": 855,
            "alias": "mkr-algabas",
            "name": "мкр Алгабас",
            "lat": 43.199,
            "lon": 76.8349,
            "zoom": 12,
            "hasChildren": false,
            "hasComplexes": false,
            "hasStreet": false,
            "isBigCity": false,
            "type": "microdistrict",
            "parentId": 3,
            "level": 4,
            "children": []
          },
          {
            "id": 10,
            "alias": "almaty-alatauskij-mkr-bajbesik",
            "name": "мкр Байбесик",
            "lat": 43.3098,
            "lon": 76.8835,
            "zoom": 16,
            "hasChildren": false,
            "hasComplexes": false,
            "hasStreet": false,
            "isBigCity": false,
            "type": "microdistrict",
            "parentId": 3,
            "level": 4,
            "children": []
          },
          {
            "id": 821,
            "alias": "boralday-vgorode",
            "name": "мкр Боралдай (Бурундай)",
            "lat": 43.312,
            "lon": 76.8111,
            "zoom": 12,
            "hasChildren": false,
            "hasComplexes": false,
            "hasStreet": false,
            "isBigCity": false,
            "type": "microdistrict",
            "parentId": 3,
            "level": 4,
            "children": []
          },
          {
            "id": 4200,
            "alias": "gazhayyp",
            "name": "мкр Гажайып",
            "lat": 43.2716,
            "lon": 76.8131,
            "zoom": 14,
            "hasChildren": false,
            "hasComplexes": false,
            "hasStreet": false,
            "isBigCity": false,
            "type": "microdistrict",
            "parentId": 3,
            "level": 4,
            "children": []
          },
          {
            "id": 11,
            "alias": "almaty-alatauskij-mkr-darhan",
            "name": "мкр Дархан",
            "lat": 43.3134,
            "lon": 76.8759,
            "zoom": 16,
            "hasChildren": false,
            "hasComplexes": false,
            "hasStreet": false,
            "isBigCity": false,
            "type": "microdistrict",
            "parentId": 3,
            "level": 4,
            "children": []
          },
          {
            "id": 12,
            "alias": "almaty-alatauskij-mkr-zarja-vostoka",
            "name": "мкр Заря Востока",
            "lat": 43.2872,
            "lon": 76.8831,
            "zoom": 15,
            "hasChildren": false,
            "hasComplexes": false,
            "hasStreet": false,
            "isBigCity": false,
            "type": "microdistrict",
            "parentId": 3,
            "level": 4,
            "children": []
          },
          {
            "id": 2509,
            "alias": "mkr-algabas-6",
            "name": "мкр Зердели (Алгабас-6)",
            "lat": 43.2797,
            "lon": 76.8216,
            "zoom": 16,
            "hasChildren": false,
            "hasComplexes": false,
            "hasStreet": false,
            "isBigCity": false,
            "type": "microdistrict",
            "parentId": 3,
            "level": 4,
            "children": []
          },
          {
            "id": 288,
            "alias": "almaty-alatauskij-mkr-karasu",
            "name": "мкр Карасу",
            "lat": 43.3455,
            "lon": 76.9141,
            "zoom": 15,
            "hasChildren": false,
            "hasComplexes": false,
            "hasStreet": false,
            "isBigCity": false,
            "type": "microdistrict",
            "parentId": 3,
            "level": 4,
            "children": []
          },
          {
            "id": 13,
            "alias": "almaty-alatauskij-mkr-kokkajnar",
            "name": "мкр Коккайнар",
            "lat": 43.2949,
            "lon": 76.8407,
            "zoom": 15,
            "hasChildren": false,
            "hasComplexes": false,
            "hasStreet": false,
            "isBigCity": false,
            "type": "microdistrict",
            "parentId": 3,
            "level": 4,
            "children": []
          },
          {
            "id": 15,
            "alias": "almaty-alatauskij-mkr-kurylysshy",
            "name": "мкр Курылысшы",
            "lat": 43.2678,
            "lon": 76.8618,
            "zoom": 15,
            "hasChildren": false,
            "hasComplexes": false,
            "hasStreet": false,
            "isBigCity": false,
            "type": "microdistrict",
            "parentId": 3,
            "level": 4,
            "children": []
          },
          {
            "id": 861,
            "alias": "mkr-madeniet",
            "name": "мкр Мадениет",
            "lat": 43.2974,
            "lon": 76.8139,
            "zoom": 12,
            "hasChildren": false,
            "hasComplexes": false,
            "hasStreet": false,
            "isBigCity": false,
            "type": "microdistrict",
            "parentId": 3,
            "level": 4,
            "children": []
          },
          {
            "id": 2507,
            "alias": "mkr-algabas-1",
            "name": "мкр Нуркент (Алгабас-1)",
            "lat": 43.2557,
            "lon": 76.8203,
            "zoom": 16,
            "hasChildren": false,
            "hasComplexes": false,
            "hasStreet": false,
            "isBigCity": false,
            "type": "microdistrict",
            "parentId": 3,
            "level": 4,
            "children": []
          },
          {
            "id": 16,
            "alias": "almaty-alatauskij-mkr-ozhet",
            "name": "мкр Ожет",
            "lat": 43.3226,
            "lon": 76.8881,
            "zoom": 16,
            "hasChildren": false,
            "hasComplexes": false,
            "hasStreet": false,
            "isBigCity": false,
            "type": "microdistrict",
            "parentId": 3,
            "level": 4,
            "children": []
          },
          {
            "id": 859,
            "alias": "raxat-nizhnij",
            "name": "мкр Рахат",
            "lat": 43.2857,
            "lon": 76.8064,
            "zoom": 12,
            "hasChildren": false,
            "hasComplexes": false,
            "hasStreet": false,
            "isBigCity": false,
            "type": "microdistrict",
            "parentId": 3,
            "level": 4,
            "children": []
          },
          {
            "id": 3623,
            "alias": "mkr-samgau",
            "name": "мкр Самгау",
            "lat": 43.2664,
            "lon": 76.8593,
            "zoom": 16,
            "hasChildren": false,
            "hasComplexes": false,
            "hasStreet": false,
            "isBigCity": false,
            "type": "microdistrict",
            "parentId": 3,
            "level": 4,
            "children": []
          },
          {
            "id": 2453,
            "alias": "mkr-sayaly",
            "name": "мкр Саялы",
            "lat": 43.3125,
            "lon": 76.8432,
            "zoom": 15,
            "hasChildren": false,
            "hasComplexes": false,
            "hasStreet": false,
            "isBigCity": false,
            "type": "microdistrict",
            "parentId": 3,
            "level": 4,
            "children": []
          },
          {
            "id": 857,
            "alias": "mkr-terekty",
            "name": "мкр Теректы",
            "lat": 43.3134,
            "lon": 76.8144,
            "zoom": 12,
            "hasChildren": false,
            "hasComplexes": false,
            "hasStreet": false,
            "isBigCity": false,
            "type": "microdistrict",
            "parentId": 3,
            "level": 4,
            "children": []
          },
          {
            "id": 4045,
            "alias": "mkr_tomiris",
            "name": "мкр Томирис",
            "lat": 43.3288,
            "lon": 76.8398,
            "zoom": 15,
            "hasChildren": false,
            "hasComplexes": false,
            "hasStreet": true,
            "isBigCity": false,
            "type": "microdistrict",
            "parentId": 3,
            "level": 4,
            "children": []
          },
          {
            "id": 14,
            "alias": "almaty-alatauskij-mkr-trudovik",
            "name": "мкр Трудовик",
            "lat": 43.3294,
            "lon": 76.8482,
            "zoom": 14,
            "hasChildren": false,
            "hasComplexes": false,
            "hasStreet": false,
            "isBigCity": false,
            "type": "microdistrict",
            "parentId": 3,
            "level": 4,
            "children": []
          },
          {
            "id": 17,
            "alias": "almaty-alatauskij-mkr-turkestan",
            "name": "мкр Туркестан",
            "lat": 43.2763,
            "lon": 76.858,
            "zoom": 16,
            "hasChildren": false,
            "hasComplexes": false,
            "hasStreet": false,
            "isBigCity": false,
            "type": "microdistrict",
            "parentId": 3,
            "level": 4,
            "children": []
          },
          {
            "id": 18,
            "alias": "almaty-alatauskij-mkr-ulzhan-1",
            "name": "мкр Улжан-1",
            "lat": 43.3022,
            "lon": 76.8735,
            "zoom": 15,
            "hasChildren": false,
            "hasComplexes": false,
            "hasStreet": false,
            "isBigCity": false,
            "type": "microdistrict",
            "parentId": 3,
            "level": 4,
            "children": []
          },
          {
            "id": 19,
            "alias": "almaty-alatauskij-mkr-ulzhan-2",
            "name": "мкр Улжан-2",
            "lat": 43.3043,
            "lon": 76.8831,
            "zoom": 16,
            "hasChildren": false,
            "hasComplexes": false,
            "hasStreet": false,
            "isBigCity": false,
            "type": "microdistrict",
            "parentId": 3,
            "level": 4,
            "children": []
          },
          {
            "id": 20,
            "alias": "almaty-alatauskij-mkr-shanyrak-1",
            "name": "мкр Шанырак-1",
            "lat": 43.2953,
            "lon": 76.8606,
            "zoom": 16,
            "hasChildren": false,
            "hasComplexes": false,
            "hasStreet": false,
            "isBigCity": false,
            "type": "microdistrict",
            "parentId": 3,
            "level": 4,
            "children": []
          },
          {
            "id": 21,
            "alias": "almaty-alatauskij-mkr-shanyrak-2",
            "name": "мкр Шанырак-2",
            "lat": 43.291,
            "lon": 76.8479,
            "zoom": 15,
            "hasChildren": false,
            "hasComplexes": false,
            "hasStreet": false,
            "isBigCity": false,
            "type": "microdistrict",
            "parentId": 3,
            "level": 4,
            "children": []
          },
          {
            "id": 22,
            "alias": "almaty-alatauskij-mkr-shanyrak-3",
            "name": "мкр Шанырак-3",
            "lat": 43.2749,
            "lon": 76.8477,
            "zoom": 15,
            "hasChildren": false,
            "hasComplexes": false,
            "hasStreet": false,
            "isBigCity": false,
            "type": "microdistrict",
            "parentId": 3,
            "level": 4,
            "children": []
          },
          {
            "id": 23,
            "alias": "almaty-alatauskij-mkr-shanyrak-4",
            "name": "мкр Шанырак-4",
            "lat": 43.2748,
            "lon": 76.8304,
            "zoom": 14,
            "hasChildren": false,
            "hasComplexes": false,
            "hasStreet": false,
            "isBigCity": false,
            "type": "microdistrict",
            "parentId": 3,
            "level": 4,
            "children": []
          },
          {
            "id": 24,
            "alias": "almaty-alatauskij-mkr-shanyrak-5",
            "name": "мкр Шанырак-5",
            "lat": 43.3204,
            "lon": 76.8416,
            "zoom": 15,
            "hasChildren": false,
            "hasComplexes": false,
            "hasStreet": false,
            "isBigCity": false,
            "type": "microdistrict",
            "parentId": 3,
            "level": 4,
            "children": []
          },
          {
            "id": 25,
            "alias": "almaty-alatauskij-mkr-shanyrak-6",
            "name": "мкр Шанырак-6",
            "lat": 43.3286,
            "lon": 76.8961,
            "zoom": 16,
            "hasChildren": false,
            "hasComplexes": false,
            "hasStreet": false,
            "isBigCity": false,
            "type": "microdistrict",
            "parentId": 3,
            "level": 4,
            "children": []
          }
        ]
      },
      {
        "id": 26,
        "alias": "almaty-almalinskij",
        "name": "Алмалинский р-н",
        "lat": 43.2611,
        "lon": 76.8945,
        "zoom": 13,
        "type": "district",
        "hasComplexes": false,
        "label": "Все микрорайоны",
        "selected": true,
        "children": [
          {
            "id": 27,
            "alias": "almaty-almalinskijj-tastak-2",
            "name": "мкр Тастак-2",
            "lat": 43.2524,
            "lon": 76.8691,
            "zoom": 14,
            "hasChildren": false,
            "hasComplexes": false,
            "hasStreet": false,
            "isBigCity": false,
            "type": "microdistrict",
            "parentId": 26,
            "level": 4,
            "children": []
          },
          {
            "id": 28,
            "alias": "almaty-almalinskij-tastak-3",
            "name": "мкр Тастак-3",
            "lat": 43.2559,
            "lon": 76.8833,
            "zoom": 15,
            "hasChildren": false,
            "hasComplexes": false,
            "hasStreet": false,
            "isBigCity": false,
            "type": "microdistrict",
            "parentId": 26,
            "level": 4,
            "children": []
          }
        ]
      },
      {
        "id": 29,
        "alias": "almaty-aujezovskij",
        "name": "Ауэзовский р-н",
        "lat": 43.2409,
        "lon": 76.839,
        "zoom": 13,
        "type": "district",
        "hasComplexes": false,
        "label": "Все микрорайоны",
        "selected": true,
        "children": [
          {
            "id": 380,
            "alias": "almaty-aujezovskij-mkr-akbulak",
            "name": "мкр Акбулак",
            "lat": 43.257,
            "lon": 76.8316,
            "zoom": 16,
            "hasChildren": false,
            "hasComplexes": false,
            "hasStreet": false,
            "isBigCity": false,
            "type": "microdistrict",
            "parentId": 29,
            "level": 4,
            "children": []
          },
          {
            "id": 43,
            "alias": "almaty-aujezovskij-mkr-aksay-1",
            "name": "мкр Аксай-1",
            "lat": 43.2422,
            "lon": 76.833,
            "zoom": 16,
            "hasChildren": false,
            "hasComplexes": false,
            "hasStreet": false,
            "isBigCity": false,
            "type": "microdistrict",
            "parentId": 29,
            "level": 4,
            "children": []
          },
          {
            "id": 44,
            "alias": "almaty-aujezovskij-mkr-aksay-1a",
            "name": "мкр Аксай-1А",
            "lat": 43.2407,
            "lon": 76.8257,
            "zoom": 16,
            "hasChildren": false,
            "hasComplexes": false,
            "hasStreet": false,
            "isBigCity": false,
            "type": "microdistrict",
            "parentId": 29,
            "level": 4,
            "children": []
          },
          {
            "id": 45,
            "alias": "almaty-aujezovskij-mkr-aksay-2",
            "name": "мкр Аксай-2",
            "lat": 43.237,
            "lon": 76.8354,
            "zoom": 16,
            "hasChildren": false,
            "hasComplexes": false,
            "hasStreet": false,
            "isBigCity": false,
            "type": "microdistrict",
            "parentId": 29,
            "level": 4,
            "children": []
          },
          {
            "id": 46,
            "alias": "almaty-aujezovskij-mkr-aksay-2a",
            "name": "мкр Аксай-2А",
            "lat": 43.2327,
            "lon": 76.8376,
            "zoom": 16,
            "hasChildren": false,
            "hasComplexes": false,
            "hasStreet": false,
            "isBigCity": false,
            "type": "microdistrict",
            "parentId": 29,
            "level": 4,
            "children": []
          },
          {
            "id": 47,
            "alias": "almaty-aujezovskij-mkr-aksay-3",
            "name": "мкр Аксай-3",
            "lat": 43.2354,
            "lon": 76.8302,
            "zoom": 16,
            "hasChildren": false,
            "hasComplexes": false,
            "hasStreet": false,
            "isBigCity": false,
            "type": "microdistrict",
            "parentId": 29,
            "level": 4,
            "children": []
          },
          {
            "id": 48,
            "alias": "almaty-aujezovskij-mkr-aksay-3a",
            "name": "мкр Аксай-3А",
            "lat": 43.2358,
            "lon": 76.8266,
            "zoom": 16,
            "hasChildren": false,
            "hasComplexes": false,
            "hasStreet": false,
            "isBigCity": false,
            "type": "microdistrict",
            "parentId": 29,
            "level": 4,
            "children": []
          },
          {
            "id": 49,
            "alias": "almaty-aujezovskij-mkr-aksay-3b",
            "name": "мкр Аксай-3Б",
            "lat": 43.2346,
            "lon": 76.8216,
            "zoom": 16,
            "hasChildren": false,
            "hasComplexes": false,
            "hasStreet": false,
            "isBigCity": false,
            "type": "microdistrict",
            "parentId": 29,
            "level": 4,
            "children": []
          },
          {
            "id": 50,
            "alias": "almaty-aujezovskij-mkr-aksay-4",
            "name": "мкр Аксай-4",
            "lat": 43.2278,
            "lon": 76.8394,
            "zoom": 16,
            "hasChildren": false,
            "hasComplexes": false,
            "hasStreet": false,
            "isBigCity": false,
            "type": "microdistrict",
            "parentId": 29,
            "level": 4,
            "children": []
          },
          {
            "id": 51,
            "alias": "almaty-aujezovskij-mkr-aksay-5",
            "name": "мкр Аксай-5",
            "lat": 43.2273,
            "lon": 76.8336,
            "zoom": 16,
            "hasChildren": false,
            "hasComplexes": false,
            "hasStreet": false,
            "isBigCity": false,
            "type": "microdistrict",
            "parentId": 29,
            "level": 4,
            "children": []
          },
          {
            "id": 3755,
            "alias": "almas",
            "name": "мкр Алмас",
            "lat": 43.2062,
            "lon": 76.8402,
            "zoom": 15,
            "hasChildren": false,
            "hasComplexes": false,
            "hasStreet": false,
            "isBigCity": false,
            "type": "microdistrict",
            "parentId": 29,
            "level": 4,
            "children": []
          },
          {
            "id": 52,
            "alias": "almaty-aujezovskij-mkr-altyn-besik",
            "name": "мкр Алтын Бесик",
            "lat": 43.2335,
            "lon": 76.8163,
            "zoom": 16,
            "hasChildren": false,
            "hasComplexes": false,
            "hasStreet": false,
            "isBigCity": false,
            "type": "microdistrict",
            "parentId": 29,
            "level": 4,
            "children": []
          },
          {
            "id": 53,
            "alias": "almaty-aujezovskij-mkr-astana",
            "name": "мкр Астана",
            "lat": 43.2109,
            "lon": 76.8531,
            "zoom": 16,
            "hasChildren": false,
            "hasComplexes": false,
            "hasStreet": false,
            "isBigCity": false,
            "type": "microdistrict",
            "parentId": 29,
            "level": 4,
            "children": []
          },
          {
            "id": 54,
            "alias": "almaty-aujezovskij-mkr-bajanaul",
            "name": "мкр Баянаул",
            "lat": 43.239,
            "lon": 76.8199,
            "zoom": 16,
            "hasChildren": false,
            "hasComplexes": false,
            "hasStreet": false,
            "isBigCity": false,
            "type": "microdistrict",
            "parentId": 29,
            "level": 4,
            "children": []
          },
          {
            "id": 55,
            "alias": "almaty-aujezovskij-mkr-dostyk",
            "name": "мкр Достык",
            "lat": 43.2216,
            "lon": 76.8299,
            "zoom": 15,
            "hasChildren": false,
            "hasComplexes": false,
            "hasStreet": false,
            "isBigCity": false,
            "type": "microdistrict",
            "parentId": 29,
            "level": 4,
            "children": []
          },
          {
            "id": 56,
            "alias": "almaty-aujezovskij-mkr-dubok",
            "name": "мкр Дубок (Шабыт)",
            "lat": 43.2032,
            "lon": 76.8482,
            "zoom": 17,
            "hasChildren": false,
            "hasComplexes": false,
            "hasStreet": false,
            "isBigCity": false,
            "type": "microdistrict",
            "parentId": 29,
            "level": 4,
            "children": []
          },
          {
            "id": 57,
            "alias": "almaty-aujezovskij-mkr-dubok-2",
            "name": "мкр Дубок-2",
            "lat": 43.1965,
            "lon": 76.9087,
            "zoom": 17,
            "hasChildren": false,
            "hasComplexes": false,
            "hasStreet": false,
            "isBigCity": false,
            "type": "microdistrict",
            "parentId": 29,
            "level": 4,
            "children": []
          },
          {
            "id": 72,
            "alias": "almaty-aujezovskij-mkr-shkolnyj",
            "name": "мкр Жазира",
            "lat": 43.2061,
            "lon": 76.8405,
            "zoom": 15,
            "hasChildren": false,
            "hasComplexes": false,
            "hasStreet": false,
            "isBigCity": false,
            "type": "microdistrict",
            "parentId": 29,
            "level": 4,
            "children": []
          },
          {
            "id": 59,
            "alias": "almaty-aujezovskij-mkr-zhetysu-1",
            "name": "мкр Жетысу-1",
            "lat": 43.2218,
            "lon": 76.8407,
            "zoom": 15,
            "hasChildren": false,
            "hasComplexes": false,
            "hasStreet": false,
            "isBigCity": false,
            "type": "microdistrict",
            "parentId": 29,
            "level": 4,
            "children": []
          },
          {
            "id": 60,
            "alias": "almaty-aujezovskij-mkr-zhetysu-2",
            "name": "мкр Жетысу-2",
            "lat": 43.2219,
            "lon": 76.8408,
            "zoom": 15,
            "hasChildren": false,
            "hasComplexes": false,
            "hasStreet": false,
            "isBigCity": false,
            "type": "microdistrict",
            "parentId": 29,
            "level": 4,
            "children": []
          },
          {
            "id": 61,
            "alias": "almaty-aujezovskij-mkr-zhetysu-3",
            "name": "мкр Жетысу-3",
            "lat": 43.2213,
            "lon": 76.8424,
            "zoom": 16,
            "hasChildren": false,
            "hasComplexes": false,
            "hasStreet": false,
            "isBigCity": false,
            "type": "microdistrict",
            "parentId": 29,
            "level": 4,
            "children": []
          },
          {
            "id": 62,
            "alias": "almaty-aujezovskij-mkr-zhetysu-4",
            "name": "мкр Жетысу-4",
            "lat": 43.2221,
            "lon": 76.8368,
            "zoom": 15,
            "hasChildren": false,
            "hasComplexes": false,
            "hasStreet": false,
            "isBigCity": false,
            "type": "microdistrict",
            "parentId": 29,
            "level": 4,
            "children": []
          },
          {
            "id": 65,
            "alias": "almaty-aujezovskij-mkr-mamyr",
            "name": "мкр Мамыр",
            "lat": 43.2126,
            "lon": 76.8458,
            "zoom": 15,
            "hasChildren": false,
            "hasComplexes": false,
            "hasStreet": false,
            "isBigCity": false,
            "type": "microdistrict",
            "parentId": 29,
            "level": 4,
            "children": []
          },
          {
            "id": 475,
            "alias": "almaty-aujezovskij-mkr-mamyr-1",
            "name": "мкр Мамыр-1",
            "lat": 43.2126,
            "lon": 76.8458,
            "zoom": 15,
            "hasChildren": false,
            "hasComplexes": false,
            "hasStreet": false,
            "isBigCity": false,
            "type": "microdistrict",
            "parentId": 29,
            "level": 4,
            "children": []
          },
          {
            "id": 320,
            "alias": "almaty-aujezovskij-mkr-mamyr-2",
            "name": "мкр Мамыр-2",
            "lat": 43.2126,
            "lon": 76.8458,
            "zoom": 15,
            "hasChildren": false,
            "hasComplexes": false,
            "hasStreet": false,
            "isBigCity": false,
            "type": "microdistrict",
            "parentId": 29,
            "level": 4,
            "children": []
          },
          {
            "id": 455,
            "alias": "almaty-aujezovskij-mkr-mamyr-3",
            "name": "мкр Мамыр-3",
            "lat": 43.2126,
            "lon": 76.8458,
            "zoom": 15,
            "hasChildren": false,
            "hasComplexes": false,
            "hasStreet": false,
            "isBigCity": false,
            "type": "microdistrict",
            "parentId": 29,
            "level": 4,
            "children": []
          },
          {
            "id": 319,
            "alias": "almaty-aujezovskij-mkr-mamyr-4",
            "name": "мкр Мамыр-4",
            "lat": 43.2126,
            "lon": 76.8458,
            "zoom": 15,
            "hasChildren": false,
            "hasComplexes": false,
            "hasStreet": false,
            "isBigCity": false,
            "type": "microdistrict",
            "parentId": 29,
            "level": 4,
            "children": []
          },
          {
            "id": 66,
            "alias": "almaty-aujezovskij-mkr-mamyr-7",
            "name": "мкр Мамыр-7",
            "lat": 43.2126,
            "lon": 76.8458,
            "zoom": 15,
            "hasChildren": false,
            "hasComplexes": false,
            "hasStreet": false,
            "isBigCity": false,
            "type": "microdistrict",
            "parentId": 29,
            "level": 4,
            "children": []
          },
          {
            "id": 67,
            "alias": "almaty-aujezovskij-mkr-sayran",
            "name": "мкр Сайран",
            "lat": 43.239,
            "lon": 76.8798,
            "zoom": 16,
            "hasChildren": false,
            "hasComplexes": false,
            "hasStreet": false,
            "isBigCity": false,
            "type": "microdistrict",
            "parentId": 29,
            "level": 4,
            "children": []
          },
          {
            "id": 799,
            "alias": "lmaty-aujezovskij-mkr-tastak-1",
            "name": "мкр Тастак-1",
            "lat": 43.2488,
            "lon": 76.8529,
            "zoom": 14,
            "hasChildren": false,
            "hasComplexes": false,
            "hasStreet": false,
            "isBigCity": false,
            "type": "microdistrict",
            "parentId": 29,
            "level": 4,
            "children": []
          },
          {
            "id": 69,
            "alias": "almaty-aujezovskij-mkr-taugul",
            "name": "мкр Таугуль",
            "lat": 43.2088,
            "lon": 76.8688,
            "zoom": 16,
            "hasChildren": false,
            "hasComplexes": false,
            "hasStreet": false,
            "isBigCity": false,
            "type": "microdistrict",
            "parentId": 29,
            "level": 4,
            "children": []
          },
          {
            "id": 70,
            "alias": "almaty-aujezovskij-mkr-taugul-1",
            "name": "мкр Таугуль-1",
            "lat": 43.2131,
            "lon": 76.879,
            "zoom": 16,
            "hasChildren": false,
            "hasComplexes": false,
            "hasStreet": false,
            "isBigCity": false,
            "type": "microdistrict",
            "parentId": 29,
            "level": 4,
            "children": []
          },
          {
            "id": 58,
            "alias": "almaty-aujezovskij-mkr-taugul-2",
            "name": "мкр Таугуль-2",
            "lat": 43.2134,
            "lon": 76.8742,
            "zoom": 16,
            "hasChildren": false,
            "hasComplexes": false,
            "hasStreet": false,
            "isBigCity": false,
            "type": "microdistrict",
            "parentId": 29,
            "level": 4,
            "children": []
          },
          {
            "id": 71,
            "alias": "almaty-aujezovskij-mkr-taugul-3",
            "name": "мкр Таугуль-3",
            "lat": 43.2003,
            "lon": 76.8564,
            "zoom": 15,
            "hasChildren": false,
            "hasComplexes": false,
            "hasStreet": false,
            "isBigCity": false,
            "type": "microdistrict",
            "parentId": 29,
            "level": 4,
            "children": []
          },
          {
            "id": 2497,
            "alias": "mkr-teplichnyj",
            "name": "мкр Тепличный",
            "lat": 43.2082,
            "lon": 76.8565,
            "zoom": 16,
            "hasChildren": false,
            "hasComplexes": false,
            "hasStreet": false,
            "isBigCity": false,
            "type": "microdistrict",
            "parentId": 29,
            "level": 4,
            "children": []
          },
          {
            "id": 30,
            "alias": "almaty-aujezovskij-mkr-1",
            "name": "мкр №1",
            "lat": 43.2308,
            "lon": 76.8489,
            "zoom": 16,
            "hasChildren": false,
            "hasComplexes": false,
            "hasStreet": false,
            "isBigCity": false,
            "type": "microdistrict",
            "parentId": 29,
            "level": 4,
            "children": []
          },
          {
            "id": 31,
            "alias": "almaty-aujezovskij-mkr-10",
            "name": "мкр №10",
            "lat": 43.2171,
            "lon": 76.8699,
            "zoom": 16,
            "hasChildren": false,
            "hasComplexes": false,
            "hasStreet": false,
            "isBigCity": false,
            "type": "microdistrict",
            "parentId": 29,
            "level": 4,
            "children": []
          },
          {
            "id": 32,
            "alias": "almaty-aujezovskij-mkr-10a",
            "name": "мкр №10 А",
            "lat": 43.2161,
            "lon": 76.8594,
            "zoom": 16,
            "hasChildren": false,
            "hasComplexes": false,
            "hasStreet": false,
            "isBigCity": false,
            "type": "microdistrict",
            "parentId": 29,
            "level": 4,
            "children": []
          },
          {
            "id": 33,
            "alias": "almaty-aujezovskij-mkr-11",
            "name": "мкр №11",
            "lat": 43.2222,
            "lon": 76.8736,
            "zoom": 16,
            "hasChildren": false,
            "hasComplexes": false,
            "hasStreet": false,
            "isBigCity": false,
            "type": "microdistrict",
            "parentId": 29,
            "level": 4,
            "children": []
          },
          {
            "id": 34,
            "alias": "almaty-aujezovskij-mkr-12",
            "name": "мкр №12",
            "lat": 43.2204,
            "lon": 76.8643,
            "zoom": 16,
            "hasChildren": false,
            "hasComplexes": false,
            "hasStreet": false,
            "isBigCity": false,
            "type": "microdistrict",
            "parentId": 29,
            "level": 4,
            "children": []
          },
          {
            "id": 35,
            "alias": "almaty-aujezovskij-mkr-2",
            "name": "мкр №2",
            "lat": 43.2344,
            "lon": 76.8639,
            "zoom": 16,
            "hasChildren": false,
            "hasComplexes": false,
            "hasStreet": false,
            "isBigCity": false,
            "type": "microdistrict",
            "parentId": 29,
            "level": 4,
            "children": []
          },
          {
            "id": 36,
            "alias": "almaty-aujezovskij-mkr-3",
            "name": "мкр №3",
            "lat": 43.2241,
            "lon": 76.8518,
            "zoom": 16,
            "hasChildren": false,
            "hasComplexes": false,
            "hasStreet": false,
            "isBigCity": false,
            "type": "microdistrict",
            "parentId": 29,
            "level": 4,
            "children": []
          },
          {
            "id": 37,
            "alias": "almaty-aujezovskij-mkr-4",
            "name": "мкр №4",
            "lat": 43.2274,
            "lon": 76.8586,
            "zoom": 16,
            "hasChildren": false,
            "hasComplexes": false,
            "hasStreet": false,
            "isBigCity": false,
            "type": "microdistrict",
            "parentId": 29,
            "level": 4,
            "children": []
          },
          {
            "id": 38,
            "alias": "almaty-aujezovskij-mkr-5",
            "name": "мкр №5",
            "lat": 43.2313,
            "lon": 76.8638,
            "zoom": 16,
            "hasChildren": false,
            "hasComplexes": false,
            "hasStreet": false,
            "isBigCity": false,
            "type": "microdistrict",
            "parentId": 29,
            "level": 4,
            "children": []
          },
          {
            "id": 39,
            "alias": "almaty-aujezovskij-mkr-6",
            "name": "мкр №6",
            "lat": 43.2202,
            "lon": 76.8577,
            "zoom": 16,
            "hasChildren": false,
            "hasComplexes": false,
            "hasStreet": false,
            "isBigCity": false,
            "type": "microdistrict",
            "parentId": 29,
            "level": 4,
            "children": []
          },
          {
            "id": 40,
            "alias": "almaty-aujezovskij-mkr-7",
            "name": "мкр №7",
            "lat": 43.2244,
            "lon": 76.8623,
            "zoom": 16,
            "hasChildren": false,
            "hasComplexes": false,
            "hasStreet": false,
            "isBigCity": false,
            "type": "microdistrict",
            "parentId": 29,
            "level": 4,
            "children": []
          },
          {
            "id": 41,
            "alias": "almaty-aujezovskij-mkr-8",
            "name": "мкр №8",
            "lat": 43.2255,
            "lon": 76.8691,
            "zoom": 16,
            "hasChildren": false,
            "hasComplexes": false,
            "hasStreet": false,
            "isBigCity": false,
            "type": "microdistrict",
            "parentId": 29,
            "level": 4,
            "children": []
          },
          {
            "id": 42,
            "alias": "almaty-aujezovskij-mkr-9",
            "name": "мкр №9",
            "lat": 43.2124,
            "lon": 76.8639,
            "zoom": 16,
            "hasChildren": false,
            "hasComplexes": false,
            "hasStreet": false,
            "isBigCity": false,
            "type": "microdistrict",
            "parentId": 29,
            "level": 4,
            "children": []
          }
        ]
      },
      {
        "id": 73,
        "alias": "almaty-bostandykskij",
        "name": "Бостандыкский р-н",
        "lat": 43.2134,
        "lon": 76.888,
        "zoom": 13,
        "type": "district",
        "hasComplexes": false,
        "label": "Все микрорайоны",
        "selected": true,
        "children": [
          {
            "id": 871,
            "alias": "mkr-aktobe",
            "name": "мкр Актобе",
            "lat": 43.181,
            "lon": 76.9564,
            "zoom": 15,
            "hasChildren": false,
            "hasComplexes": false,
            "hasStreet": false,
            "isBigCity": false,
            "type": "microdistrict",
            "parentId": 73,
            "level": 4,
            "children": []
          },
          {
            "id": 74,
            "alias": "almaty-bostandykskij-almagul",
            "name": "мкр Алмагуль",
            "lat": 43.2044,
            "lon": 76.9013,
            "zoom": 15,
            "hasChildren": false,
            "hasComplexes": false,
            "hasStreet": false,
            "isBigCity": false,
            "type": "microdistrict",
            "parentId": 73,
            "level": 4,
            "children": []
          },
          {
            "id": 3861,
            "alias": "arkhat",
            "name": "мкр Архат",
            "lat": 43.1575,
            "lon": 76.8918,
            "zoom": 15,
            "hasChildren": false,
            "hasComplexes": false,
            "hasStreet": false,
            "isBigCity": false,
            "type": "microdistrict",
            "parentId": 73,
            "level": 4,
            "children": []
          },
          {
            "id": 75,
            "alias": "almaty-bostandykskij-baganashyl",
            "name": "мкр Баганашыл",
            "lat": 43.1986,
            "lon": 76.9135,
            "zoom": 15,
            "hasChildren": false,
            "hasComplexes": false,
            "hasStreet": false,
            "isBigCity": false,
            "type": "microdistrict",
            "parentId": 73,
            "level": 4,
            "children": []
          },
          {
            "id": 827,
            "alias": "mkr-ermensaj",
            "name": "мкр Ерменсай",
            "lat": 43.194,
            "lon": 76.9127,
            "zoom": 13,
            "hasChildren": false,
            "hasComplexes": false,
            "hasStreet": false,
            "isBigCity": false,
            "type": "microdistrict",
            "parentId": 73,
            "level": 4,
            "children": []
          },
          {
            "id": 76,
            "alias": "almaty-bostandykskij-kazahfilm",
            "name": "мкр Казахфильм",
            "lat": 43.1956,
            "lon": 76.9034,
            "zoom": 15,
            "hasChildren": false,
            "hasComplexes": false,
            "hasStreet": false,
            "isBigCity": false,
            "type": "microdistrict",
            "parentId": 73,
            "level": 4,
            "children": []
          },
          {
            "id": 364,
            "alias": "almaty-bostandykskij-keremet",
            "name": "мкр Керемет",
            "lat": 43.236,
            "lon": 76.9388,
            "zoom": 17,
            "hasChildren": false,
            "hasComplexes": false,
            "hasStreet": false,
            "isBigCity": false,
            "type": "microdistrict",
            "parentId": 73,
            "level": 4,
            "children": []
          },
          {
            "id": 77,
            "alias": "almaty-bostandykskij-koktem-1",
            "name": "мкр Коктем-1",
            "lat": 43.2284,
            "lon": 76.9276,
            "zoom": 15,
            "hasChildren": false,
            "hasComplexes": false,
            "hasStreet": false,
            "isBigCity": false,
            "type": "microdistrict",
            "parentId": 73,
            "level": 4,
            "children": []
          },
          {
            "id": 78,
            "alias": "almaty-bostandykskij-koktem-2",
            "name": "мкр Коктем-2",
            "lat": 43.2289,
            "lon": 76.9161,
            "zoom": 17,
            "hasChildren": false,
            "hasComplexes": false,
            "hasStreet": false,
            "isBigCity": false,
            "type": "microdistrict",
            "parentId": 73,
            "level": 4,
            "children": []
          },
          {
            "id": 79,
            "alias": "almaty-bostandykskij-koktem-3",
            "name": "мкр Коктем-3",
            "lat": 43.2349,
            "lon": 76.9136,
            "zoom": 16,
            "hasChildren": false,
            "hasComplexes": false,
            "hasStreet": false,
            "isBigCity": false,
            "type": "microdistrict",
            "parentId": 73,
            "level": 4,
            "children": []
          },
          {
            "id": 625,
            "alias": "almaty-bostandykskij-miras",
            "name": "мкр Мирас",
            "lat": 43.1889,
            "lon": 76.8766,
            "zoom": 16,
            "hasChildren": false,
            "hasComplexes": false,
            "hasStreet": false,
            "isBigCity": false,
            "type": "microdistrict",
            "parentId": 73,
            "level": 4,
            "children": []
          },
          {
            "id": 3245,
            "alias": "mkr-nur-alatau",
            "name": "мкр Нур Алатау",
            "lat": 43.183,
            "lon": 76.8975,
            "zoom": 14,
            "hasChildren": false,
            "hasComplexes": false,
            "hasStreet": false,
            "isBigCity": false,
            "type": "microdistrict",
            "parentId": 73,
            "level": 4,
            "children": []
          },
          {
            "id": 829,
            "alias": "mkr-nurlytau",
            "name": "мкр Нурлытау (Энергетик)",
            "lat": 43.178,
            "lon": 76.9228,
            "zoom": 12,
            "hasChildren": false,
            "hasComplexes": false,
            "hasStreet": false,
            "isBigCity": false,
            "type": "microdistrict",
            "parentId": 73,
            "level": 4,
            "children": []
          },
          {
            "id": 80,
            "alias": "almaty-bostandykskij-orbita-1",
            "name": "мкр Орбита-1",
            "lat": 43.2012,
            "lon": 76.883,
            "zoom": 16,
            "hasChildren": false,
            "hasComplexes": false,
            "hasStreet": false,
            "isBigCity": false,
            "type": "microdistrict",
            "parentId": 73,
            "level": 4,
            "children": []
          },
          {
            "id": 81,
            "alias": "almaty-bostandykskij-orbita-2",
            "name": "мкр Орбита-2",
            "lat": 43.1972,
            "lon": 76.8846,
            "zoom": 16,
            "hasChildren": false,
            "hasComplexes": false,
            "hasStreet": false,
            "isBigCity": false,
            "type": "microdistrict",
            "parentId": 73,
            "level": 4,
            "children": []
          },
          {
            "id": 82,
            "alias": "almaty-bostandykskij-orbita-3",
            "name": "мкр Орбита-3",
            "lat": 43.2001,
            "lon": 76.8755,
            "zoom": 16,
            "hasChildren": false,
            "hasComplexes": false,
            "hasStreet": false,
            "isBigCity": false,
            "type": "microdistrict",
            "parentId": 73,
            "level": 4,
            "children": []
          },
          {
            "id": 287,
            "alias": "almaty-bostandykskij-orbita-4",
            "name": "мкр Орбита-4",
            "lat": 43.1967,
            "lon": 76.8775,
            "zoom": 16,
            "hasChildren": false,
            "hasComplexes": false,
            "hasStreet": false,
            "isBigCity": false,
            "type": "microdistrict",
            "parentId": 73,
            "level": 4,
            "children": []
          },
          {
            "id": 1307,
            "alias": "mkr-han-tengri",
            "name": "мкр Хан Тенгри",
            "lat": 43.1725,
            "lon": 76.8951,
            "zoom": 15,
            "hasChildren": false,
            "hasComplexes": false,
            "hasStreet": false,
            "isBigCity": false,
            "type": "microdistrict",
            "parentId": 73,
            "level": 4,
            "children": []
          }
        ]
      },
      {
        "id": 83,
        "alias": "almaty-zhetysuskij",
        "name": "Жетысуский р-н",
        "lat": 43.3011,
        "lon": 76.8983,
        "zoom": 13,
        "type": "district",
        "hasComplexes": false,
        "label": "Все микрорайоны",
        "selected": true,
        "children": [
          {
            "id": 84,
            "alias": "almaty-zhetysuskij-ajnabulak-1",
            "name": "мкр Айнабулак-1",
            "lat": 43.321,
            "lon": 76.9098,
            "zoom": 16,
            "hasChildren": false,
            "hasComplexes": false,
            "hasStreet": false,
            "isBigCity": false,
            "type": "microdistrict",
            "parentId": 83,
            "level": 4,
            "children": []
          },
          {
            "id": 85,
            "alias": "almaty-zhetysuskij-ajnabulak-2",
            "name": "мкр Айнабулак-2",
            "lat": 43.3165,
            "lon": 76.914,
            "zoom": 16,
            "hasChildren": false,
            "hasComplexes": false,
            "hasStreet": false,
            "isBigCity": false,
            "type": "microdistrict",
            "parentId": 83,
            "level": 4,
            "children": []
          },
          {
            "id": 86,
            "alias": "almaty-zhetysuskij-ajnabulak-3",
            "name": "мкр Айнабулак-3",
            "lat": 43.3235,
            "lon": 76.9201,
            "zoom": 16,
            "hasChildren": false,
            "hasComplexes": false,
            "hasStreet": false,
            "isBigCity": false,
            "type": "microdistrict",
            "parentId": 83,
            "level": 4,
            "children": []
          },
          {
            "id": 374,
            "alias": "almaty-zhetysuskij-ajnabulak-4",
            "name": "мкр Айнабулак-4",
            "lat": 43.3243,
            "lon": 76.9166,
            "zoom": 17,
            "hasChildren": false,
            "hasComplexes": false,
            "hasStreet": false,
            "isBigCity": false,
            "type": "microdistrict",
            "parentId": 83,
            "level": 4,
            "children": []
          },
          {
            "id": 289,
            "alias": "almaty-zhetysuskij-dorozhnik",
            "name": "мкр Дорожник",
            "lat": 43.3074,
            "lon": 76.8993,
            "zoom": 16,
            "hasChildren": false,
            "hasComplexes": false,
            "hasStreet": false,
            "isBigCity": false,
            "type": "microdistrict",
            "parentId": 83,
            "level": 4,
            "children": []
          },
          {
            "id": 823,
            "alias": "mkr-pervomajskoe",
            "name": "мкр Кемел (Первомайское)",
            "lat": 43.3701,
            "lon": 76.9445,
            "zoom": 14,
            "hasChildren": false,
            "hasComplexes": false,
            "hasStreet": false,
            "isBigCity": false,
            "type": "microdistrict",
            "parentId": 83,
            "level": 4,
            "children": []
          },
          {
            "id": 286,
            "alias": "almaty-zhetysuskij-kokzhiek",
            "name": "мкр Кокжиек",
            "lat": 43.3485,
            "lon": 76.9243,
            "zoom": 14,
            "hasChildren": false,
            "hasComplexes": false,
            "hasStreet": false,
            "isBigCity": false,
            "type": "microdistrict",
            "parentId": 83,
            "level": 4,
            "children": []
          },
          {
            "id": 88,
            "alias": "almaty-zhetysuskij-kulager",
            "name": "мкр Кулагер",
            "lat": 43.3042,
            "lon": 76.9236,
            "zoom": 16,
            "hasChildren": false,
            "hasComplexes": false,
            "hasStreet": false,
            "isBigCity": false,
            "type": "microdistrict",
            "parentId": 83,
            "level": 4,
            "children": []
          }
        ]
      },
      {
        "id": 89,
        "alias": "almaty-medeuskij",
        "name": "Медеуский р-н",
        "lat": 43.2283,
        "lon": 76.9586,
        "zoom": 13,
        "type": "district",
        "hasComplexes": false,
        "label": "Все микрорайоны",
        "selected": true,
        "children": [
          {
            "id": 873,
            "alias": "mkr-akkain",
            "name": "мкр Аккайын",
            "lat": 43.1782,
            "lon": 76.9532,
            "zoom": 15,
            "hasChildren": false,
            "hasComplexes": false,
            "hasStreet": false,
            "isBigCity": false,
            "type": "microdistrict",
            "parentId": 89,
            "level": 4,
            "children": []
          },
          {
            "id": 317,
            "alias": "almaty-medeuskij-alatau",
            "name": "мкр Алатау (ИЯФ)",
            "lat": 43.353,
            "lon": 77.1458,
            "zoom": 14,
            "hasChildren": false,
            "hasComplexes": false,
            "hasStreet": false,
            "isBigCity": false,
            "type": "microdistrict",
            "parentId": 89,
            "level": 4,
            "children": []
          },
          {
            "id": 869,
            "alias": "mkr-remizovka",
            "name": "мкр Аскартау",
            "lat": 43.2025,
            "lon": 76.9364,
            "zoom": 15,
            "hasChildren": false,
            "hasComplexes": false,
            "hasStreet": false,
            "isBigCity": false,
            "type": "microdistrict",
            "parentId": 89,
            "level": 4,
            "children": []
          },
          {
            "id": 90,
            "alias": "almaty-medeuskij-atyrau",
            "name": "мкр Атырау",
            "lat": 43.2939,
            "lon": 76.986,
            "zoom": 16,
            "hasChildren": false,
            "hasComplexes": false,
            "hasStreet": false,
            "isBigCity": false,
            "type": "microdistrict",
            "parentId": 89,
            "level": 4,
            "children": []
          },
          {
            "id": 91,
            "alias": "almaty-medeuskij-butakovka",
            "name": "мкр Бутаковка",
            "lat": 43.1908,
            "lon": 77.029,
            "zoom": 15,
            "hasChildren": false,
            "hasComplexes": false,
            "hasStreet": false,
            "isBigCity": false,
            "type": "microdistrict",
            "parentId": 89,
            "level": 4,
            "children": []
          },
          {
            "id": 92,
            "alias": "almaty-medeuskij-gornyj-gigant",
            "name": "мкр Горный Гигант",
            "lat": 43.2166,
            "lon": 76.9497,
            "zoom": 15,
            "hasChildren": false,
            "hasComplexes": false,
            "hasStreet": false,
            "isBigCity": false,
            "type": "microdistrict",
            "parentId": 89,
            "level": 4,
            "children": []
          },
          {
            "id": 93,
            "alias": "almaty-medeuskij-duman-1",
            "name": "мкр Думан-1",
            "lat": 43.2793,
            "lon": 77.0027,
            "zoom": 15,
            "hasChildren": false,
            "hasComplexes": false,
            "hasStreet": false,
            "isBigCity": false,
            "type": "microdistrict",
            "parentId": 89,
            "level": 4,
            "children": []
          },
          {
            "id": 463,
            "alias": "almaty-medeuskij-duman-2",
            "name": "мкр Думан-2",
            "lat": 43.2803,
            "lon": 77.0013,
            "zoom": 16,
            "hasChildren": false,
            "hasComplexes": false,
            "hasStreet": false,
            "isBigCity": false,
            "type": "microdistrict",
            "parentId": 89,
            "level": 4,
            "children": []
          },
          {
            "id": 354,
            "alias": "almaty-medeuskij-kamenskoe-plato",
            "name": "мкр Каменское плато",
            "lat": 43.1884,
            "lon": 76.9679,
            "zoom": 16,
            "hasChildren": false,
            "hasComplexes": false,
            "hasStreet": false,
            "isBigCity": false,
            "type": "microdistrict",
            "parentId": 89,
            "level": 4,
            "children": []
          },
          {
            "id": 1353,
            "alias": "kensai",
            "name": "мкр Кенсай",
            "lat": 43.2584,
            "lon": 77.0007,
            "zoom": 14,
            "hasChildren": false,
            "hasComplexes": false,
            "hasStreet": false,
            "isBigCity": false,
            "type": "microdistrict",
            "parentId": 89,
            "level": 4,
            "children": []
          },
          {
            "id": 94,
            "alias": "almaty-medeuskij-koktobe",
            "name": "мкр Коктобе",
            "lat": 43.2183,
            "lon": 76.9727,
            "zoom": 15,
            "hasChildren": false,
            "hasComplexes": false,
            "hasStreet": false,
            "isBigCity": false,
            "type": "microdistrict",
            "parentId": 89,
            "level": 4,
            "children": []
          },
          {
            "id": 875,
            "alias": "mkr-kolsaj",
            "name": "мкр Кольсай",
            "lat": 43.2894,
            "lon": 76.9772,
            "zoom": 11,
            "hasChildren": false,
            "hasComplexes": false,
            "hasStreet": false,
            "isBigCity": false,
            "type": "microdistrict",
            "parentId": 89,
            "level": 4,
            "children": []
          },
          {
            "id": 461,
            "alias": "almaty-medeuskij-samal",
            "name": "мкр Самал",
            "lat": 43.2382,
            "lon": 76.9539,
            "zoom": 16,
            "hasChildren": false,
            "hasComplexes": false,
            "hasStreet": false,
            "isBigCity": false,
            "type": "microdistrict",
            "parentId": 89,
            "level": 4,
            "children": []
          },
          {
            "id": 95,
            "alias": "almaty-medeuskij-samal-1",
            "name": "мкр Самал-1",
            "lat": 43.2368,
            "lon": 76.9537,
            "zoom": 16,
            "hasChildren": false,
            "hasComplexes": false,
            "hasStreet": false,
            "isBigCity": false,
            "type": "microdistrict",
            "parentId": 89,
            "level": 4,
            "children": []
          },
          {
            "id": 96,
            "alias": "almaty-medeuskij-samal-2",
            "name": "мкр Самал-2",
            "lat": 43.2314,
            "lon": 76.9547,
            "zoom": 16,
            "hasChildren": false,
            "hasComplexes": false,
            "hasStreet": false,
            "isBigCity": false,
            "type": "microdistrict",
            "parentId": 89,
            "level": 4,
            "children": []
          },
          {
            "id": 97,
            "alias": "almaty-medeuskij-samal-3",
            "name": "мкр Самал-3",
            "lat": 43.2256,
            "lon": 76.9564,
            "zoom": 16,
            "hasChildren": false,
            "hasComplexes": false,
            "hasStreet": false,
            "isBigCity": false,
            "type": "microdistrict",
            "parentId": 89,
            "level": 4,
            "children": []
          },
          {
            "id": 877,
            "alias": "mkr-sulusaj",
            "name": "мкр Сулусай",
            "lat": 43.2677,
            "lon": 76.9638,
            "zoom": 12,
            "hasChildren": false,
            "hasComplexes": false,
            "hasStreet": false,
            "isBigCity": false,
            "type": "microdistrict",
            "parentId": 89,
            "level": 4,
            "children": []
          },
          {
            "id": 98,
            "alias": "almaty-medeuskij-tau-samal",
            "name": "мкр Тау Самал",
            "lat": 43.1992,
            "lon": 76.9763,
            "zoom": 16,
            "hasChildren": false,
            "hasComplexes": false,
            "hasStreet": false,
            "isBigCity": false,
            "type": "microdistrict",
            "parentId": 89,
            "level": 4,
            "children": []
          },
          {
            "id": 340,
            "alias": "almaty-medeuskij-jubilejnyj",
            "name": "мкр Юбилейный",
            "lat": 43.2061,
            "lon": 76.9874,
            "zoom": 16,
            "hasChildren": false,
            "hasComplexes": false,
            "hasStreet": false,
            "isBigCity": false,
            "type": "microdistrict",
            "parentId": 89,
            "level": 4,
            "children": []
          }
        ]
      },
      {
        "id": 783,
        "alias": "almaty-nauryzbajskiy",
        "name": "Наурызбайский р-н",
        "lat": 43.1892,
        "lon": 76.8169,
        "zoom": 12,
        "type": "district",
        "hasComplexes": false,
        "label": "Все микрорайоны",
        "selected": true,
        "children": [
          {
            "id": 841,
            "alias": "mkr-akzhar",
            "name": "мкр Акжар",
            "lat": 43.1947,
            "lon": 76.7914,
            "zoom": 12,
            "hasChildren": false,
            "hasComplexes": false,
            "hasStreet": false,
            "isBigCity": false,
            "type": "microdistrict",
            "parentId": 783,
            "level": 4,
            "children": []
          },
          {
            "id": 3805,
            "alias": "galamat",
            "name": "мкр Галамат",
            "lat": 43.1583,
            "lon": 76.885,
            "zoom": 15,
            "hasChildren": false,
            "hasComplexes": false,
            "hasStreet": false,
            "isBigCity": false,
            "type": "microdistrict",
            "parentId": 783,
            "level": 4,
            "children": []
          },
          {
            "id": 3243,
            "alias": "mkr-daryn",
            "name": "мкр Дарын",
            "lat": 43.1944,
            "lon": 76.8672,
            "zoom": 16,
            "hasChildren": false,
            "hasComplexes": false,
            "hasStreet": false,
            "isBigCity": false,
            "type": "microdistrict",
            "parentId": 783,
            "level": 4,
            "children": []
          },
          {
            "id": 837,
            "alias": "mkr-zhajlau",
            "name": "мкр Жайлау",
            "lat": 43.1646,
            "lon": 76.8251,
            "zoom": 12,
            "hasChildren": false,
            "hasComplexes": false,
            "hasStreet": false,
            "isBigCity": false,
            "type": "microdistrict",
            "parentId": 783,
            "level": 4,
            "children": []
          },
          {
            "id": 2871,
            "alias": "mkr-zhajly",
            "name": "мкр Жайлы",
            "lat": 43.2124,
            "lon": 76.8158,
            "zoom": 16,
            "hasChildren": false,
            "hasComplexes": false,
            "hasStreet": false,
            "isBigCity": false,
            "type": "microdistrict",
            "parentId": 783,
            "level": 4,
            "children": []
          },
          {
            "id": 887,
            "alias": "kalkaman-1",
            "name": "мкр Калкаман-1",
            "lat": 43.1668,
            "lon": 76.8166,
            "zoom": 12,
            "hasChildren": false,
            "hasComplexes": false,
            "hasStreet": false,
            "isBigCity": false,
            "type": "microdistrict",
            "parentId": 783,
            "level": 4,
            "children": []
          },
          {
            "id": 889,
            "alias": "kalkaman-2",
            "name": "мкр Калкаман-2",
            "lat": 43.1709,
            "lon": 76.8183,
            "zoom": 12,
            "hasChildren": false,
            "hasComplexes": false,
            "hasStreet": false,
            "isBigCity": false,
            "type": "microdistrict",
            "parentId": 783,
            "level": 4,
            "children": []
          },
          {
            "id": 891,
            "alias": "kalkaman-3",
            "name": "мкр Калкаман-3",
            "lat": 43.1721,
            "lon": 76.819,
            "zoom": 12,
            "hasChildren": false,
            "hasComplexes": false,
            "hasStreet": false,
            "isBigCity": false,
            "type": "microdistrict",
            "parentId": 783,
            "level": 4,
            "children": []
          },
          {
            "id": 835,
            "alias": "mkr-karagajly",
            "name": "мкр Карагайлы",
            "lat": 43.1488,
            "lon": 76.8551,
            "zoom": 12,
            "hasChildren": false,
            "hasComplexes": false,
            "hasStreet": false,
            "isBigCity": false,
            "type": "microdistrict",
            "parentId": 783,
            "level": 4,
            "children": []
          },
          {
            "id": 833,
            "alias": "mkr-kargaly",
            "name": "мкр Каргалы",
            "lat": 43.1514,
            "lon": 76.8644,
            "zoom": 12,
            "hasChildren": false,
            "hasComplexes": false,
            "hasStreet": false,
            "isBigCity": false,
            "type": "microdistrict",
            "parentId": 783,
            "level": 4,
            "children": []
          },
          {
            "id": 831,
            "alias": "mkr-kuramys",
            "name": "мкр Курамыс",
            "lat": 43.1773,
            "lon": 76.8347,
            "zoom": 12,
            "hasChildren": false,
            "hasComplexes": false,
            "hasStreet": false,
            "isBigCity": false,
            "type": "microdistrict",
            "parentId": 783,
            "level": 4,
            "children": []
          },
          {
            "id": 879,
            "alias": "mkr-raxat",
            "name": "мкр Рахат",
            "lat": 43.1766,
            "lon": 76.8341,
            "zoom": 12,
            "hasChildren": false,
            "hasComplexes": false,
            "hasStreet": false,
            "isBigCity": false,
            "type": "microdistrict",
            "parentId": 783,
            "level": 4,
            "children": []
          },
          {
            "id": 847,
            "alias": "mkr-tastybulak",
            "name": "мкр Тастыбулак",
            "lat": 43.1749,
            "lon": 76.8004,
            "zoom": 12,
            "hasChildren": false,
            "hasComplexes": false,
            "hasStreet": false,
            "isBigCity": false,
            "type": "microdistrict",
            "parentId": 783,
            "level": 4,
            "children": []
          },
          {
            "id": 845,
            "alias": "mkr-tauzholy",
            "name": "мкр Таужолы",
            "lat": 43.1869,
            "lon": 76.8337,
            "zoom": 12,
            "hasChildren": false,
            "hasComplexes": false,
            "hasStreet": false,
            "isBigCity": false,
            "type": "microdistrict",
            "parentId": 783,
            "level": 4,
            "children": []
          },
          {
            "id": 843,
            "alias": "mkr-tausamaly",
            "name": "мкр Таусамалы",
            "lat": 43.1729,
            "lon": 76.8166,
            "zoom": 12,
            "hasChildren": false,
            "hasComplexes": false,
            "hasStreet": false,
            "isBigCity": false,
            "type": "microdistrict",
            "parentId": 783,
            "level": 4,
            "children": []
          },
          {
            "id": 839,
            "alias": "mkr-shugyla",
            "name": "мкр Шугыла",
            "lat": 43.1943,
            "lon": 76.7833,
            "zoom": 12,
            "hasChildren": false,
            "hasComplexes": false,
            "hasStreet": false,
            "isBigCity": false,
            "type": "microdistrict",
            "parentId": 783,
            "level": 4,
            "children": []
          }
        ]
      },
      {
        "id": 99,
        "alias": "almaty-turksibskij",
        "name": "Турксибский р-н",
        "lat": 43.3459,
        "lon": 76.9776,
        "zoom": 13,
        "type": "district",
        "hasComplexes": false,
        "label": "Все микрорайоны",
        "selected": true,
        "children": [
          {
            "id": 2959,
            "alias": "13-j-voennyj-gorodok",
            "name": "мкр 13-й военный городок",
            "lat": 43.3768,
            "lon": 76.9873,
            "zoom": 15,
            "hasChildren": false,
            "hasComplexes": false,
            "hasStreet": false,
            "isBigCity": false,
            "type": "microdistrict",
            "parentId": 99,
            "level": 4,
            "children": []
          },
          {
            "id": 100,
            "alias": "almaty-turksibskij-altaj-1",
            "name": "мкр Алтай-1",
            "lat": 43.3446,
            "lon": 76.9873,
            "zoom": 16,
            "hasChildren": false,
            "hasComplexes": false,
            "hasStreet": false,
            "isBigCity": false,
            "type": "microdistrict",
            "parentId": 99,
            "level": 4,
            "children": []
          },
          {
            "id": 101,
            "alias": "almaty-turksibskij-altaj-2",
            "name": "мкр Алтай-2",
            "lat": 43.3506,
            "lon": 76.9899,
            "zoom": 16,
            "hasChildren": false,
            "hasComplexes": false,
            "hasStreet": false,
            "isBigCity": false,
            "type": "microdistrict",
            "parentId": 99,
            "level": 4,
            "children": []
          },
          {
            "id": 863,
            "alias": "mkr-almerek",
            "name": "мкр Альмерек",
            "lat": 43.357,
            "lon": 76.9606,
            "zoom": 12,
            "hasChildren": false,
            "hasComplexes": false,
            "hasStreet": false,
            "isBigCity": false,
            "type": "microdistrict",
            "parentId": 99,
            "level": 4,
            "children": []
          },
          {
            "id": 1359,
            "alias": "zhas-kanat",
            "name": "мкр Жас Канат",
            "lat": 43.3398,
            "lon": 76.9836,
            "zoom": 13,
            "hasChildren": false,
            "hasComplexes": false,
            "hasStreet": true,
            "isBigCity": false,
            "type": "microdistrict",
            "parentId": 99,
            "level": 4,
            "children": []
          },
          {
            "id": 102,
            "alias": "almaty-turksibskij-zhuldyz-1",
            "name": "мкр Жулдыз-1",
            "lat": 43.3631,
            "lon": 76.995,
            "zoom": 15,
            "hasChildren": false,
            "hasComplexes": false,
            "hasStreet": false,
            "isBigCity": false,
            "type": "microdistrict",
            "parentId": 99,
            "level": 4,
            "children": []
          },
          {
            "id": 103,
            "alias": "almaty-turksibskij-zhuldyz-2",
            "name": "мкр Жулдыз-2",
            "lat": 43.3581,
            "lon": 76.993,
            "zoom": 16,
            "hasChildren": false,
            "hasComplexes": false,
            "hasStreet": false,
            "isBigCity": false,
            "type": "microdistrict",
            "parentId": 99,
            "level": 4,
            "children": []
          },
          {
            "id": 865,
            "alias": "mkr-kajrat",
            "name": "мкр Кайрат",
            "lat": 43.3554,
            "lon": 76.9834,
            "zoom": 12,
            "hasChildren": false,
            "hasComplexes": false,
            "hasStreet": false,
            "isBigCity": false,
            "type": "microdistrict",
            "parentId": 99,
            "level": 4,
            "children": []
          },
          {
            "id": 104,
            "alias": "almaty-turksibskij-majak",
            "name": "мкр Маяк",
            "lat": 43.3334,
            "lon": 76.9923,
            "zoom": 16,
            "hasChildren": false,
            "hasComplexes": false,
            "hasStreet": false,
            "isBigCity": false,
            "type": "microdistrict",
            "parentId": 99,
            "level": 4,
            "children": []
          },
          {
            "id": 867,
            "alias": "mkr-kolxozshi",
            "name": "мкр Нуршашкан (Колхозши)",
            "lat": 43.3342,
            "lon": 77.0176,
            "zoom": 14,
            "hasChildren": false,
            "hasComplexes": false,
            "hasStreet": false,
            "isBigCity": false,
            "type": "microdistrict",
            "parentId": 99,
            "level": 4,
            "children": []
          }
        ]
      }
    ]
  },

  {
    "id": 105,
    "alias": "astana",
    "name": "Астана",
    "lat": 51.1583,
    "lon": 71.4314,
    "zoom": 11,
    "type": "city",
    "hasComplexes": true,
    "label": "Все районы",
    "selected": true,
    "children": [
      {
        "id": 106,
        "alias": "astana-almatinskij",
        "name": "Алматы р-н",
        "lat": 51.1328,
        "lon": 71.51,
        "zoom": 12,
        "hasComplexes": false,
        "type": "district",
        "children": []
      },
      {
        "id": 291,
        "alias": "astana-esilskij",
        "name": "Есильский р-н",
        "lat": 51.1227,
        "lon": 71.3665,
        "zoom": 12,
        "type": "district",
        "hasComplexes": false,
        "label": "Все микрорайоны",
        "selected": true,
        "children": [
          {
            "id": 2726,
            "alias": "komsomolskij",
            "name": "мкр Комсомольский",
            "lat": 51.1414,
            "lon": 71.4144,
            "zoom": 15,
            "hasChildren": false,
            "hasComplexes": false,
            "hasStreet": false,
            "isBigCity": false,
            "type": "microdistrict",
            "parentId": 291,
            "level": 4,
            "children": []
          },
          {
            "id": 1965,
            "alias": "prigorodnyj_esil",
            "name": "мкр Пригородный",
            "lat": 0,
            "lon": 0,
            "zoom": 0,
            "hasChildren": false,
            "hasComplexes": false,
            "hasStreet": false,
            "isBigCity": false,
            "type": "microdistrict",
            "parentId": 291,
            "level": 4,
            "children": []
          },
          {
            "id": 3909,
            "alias": "shubari",
            "name": "мкр Шубар",
            "lat": 0,
            "lon": 0,
            "zoom": 0,
            "hasChildren": false,
            "hasComplexes": false,
            "hasStreet": false,
            "isBigCity": false,
            "type": "microdistrict",
            "parentId": 291,
            "level": 4,
            "children": []
          }
        ]
      },
      {
        "id": 3905,
        "alias": "astana-nura",
        "name": "Нура р-н",
        "lat": 51.114,
        "lon": 71.3798,
        "zoom": 12,
        "type": "district",
        "hasComplexes": false,
        "label": "Все микрорайоны",
        "selected": true,
        "children": [
          {
            "id": 3408,
            "alias": "urker",
            "name": "мкр Уркер",
            "lat": 51.1291,
            "lon": 71.2843,
            "zoom": 14,
            "hasChildren": false,
            "hasComplexes": false,
            "hasStreet": false,
            "isBigCity": false,
            "type": "microdistrict",
            "parentId": 3905,
            "level": 4,
            "children": []
          }
        ]
      },
      {
        "id": 2637,
        "alias": "r-n-bajkonur",
        "name": "р-н Байконур",
        "lat": 51.2338,
        "lon": 71.4686,
        "zoom": 11,
        "hasComplexes": false,
        "type": "district",
        "children": []
      },
      {
        "id": 4190,
        "alias": "astana-saraishyk",
        "name": "Сарайшык р-н",
        "lat": 0,
        "lon": 0,
        "zoom": 0,
        "hasComplexes": false,
        "type": "district",
        "children": []
      },
      {
        "id": 107,
        "alias": "astana-saryarkinskij",
        "name": "Сарыарка р-н",
        "lat": 51.2063,
        "lon": 71.3869,
        "zoom": 12,
        "hasComplexes": false,
        "type": "district",
        "children": []
      }
    ]
  },

  {
    "id": 278,
    "alias": "shymkent",
    "name": "Шымкент",
    "lat": 42.3174,
    "lon": 69.6207,
    "zoom": 11,
    "type": "city",
    "hasComplexes": true,
    "label": "Все районы",
    "selected": true,
    "children": [
      {
        "id": 386,
        "alias": "shymkent-abajskij",
        "name": "Абайский р-н",
        "lat": 42.2925,
        "lon": 69.5449,
        "zoom": 15,
        "type": "district",
        "hasComplexes": false,
        "label": "Все микрорайоны",
        "selected": true,
        "children": [
          {
            "id": 3011,
            "alias": "3-j-mikrorajon",
            "name": "3-й микрорайон",
            "lat": 42.328,
            "lon": 69.5762,
            "zoom": 15,
            "hasChildren": false,
            "hasComplexes": false,
            "hasStreet": false,
            "isBigCity": false,
            "type": "microdistrict",
            "parentId": 386,
            "level": 5,
            "children": []
          },
          {
            "id": 3005,
            "alias": "4-j-mikrorajon",
            "name": "4-й микрорайон",
            "lat": 42.338,
            "lon": 69.5732,
            "zoom": 15,
            "hasChildren": false,
            "hasComplexes": false,
            "hasStreet": false,
            "isBigCity": false,
            "type": "microdistrict",
            "parentId": 386,
            "level": 5,
            "children": []
          },
          {
            "id": 2999,
            "alias": "mkr-8-j-mikrorajon",
            "name": "8-й микрорайон",
            "lat": 42.3213,
            "lon": 69.5804,
            "zoom": 15,
            "hasChildren": false,
            "hasComplexes": false,
            "hasStreet": false,
            "isBigCity": false,
            "type": "microdistrict",
            "parentId": 386,
            "level": 5,
            "children": []
          },
          {
            "id": 4196,
            "alias": "kainar_bulak",
            "name": "жилой массив Кайнар Булак",
            "lat": 0,
            "lon": 0,
            "zoom": 0,
            "hasChildren": false,
            "hasComplexes": false,
            "hasStreet": true,
            "isBigCity": false,
            "type": "microdistrict",
            "parentId": 386,
            "level": 4,
            "children": []
          },
          {
            "id": 3235,
            "alias": "mkr-112-kvartal",
            "name": "мкр 112 квартал",
            "lat": 42.3425,
            "lon": 69.5807,
            "zoom": 15,
            "hasChildren": false,
            "hasComplexes": false,
            "hasStreet": false,
            "isBigCity": false,
            "type": "microdistrict",
            "parentId": 386,
            "level": 5,
            "children": []
          },
          {
            "id": 2979,
            "alias": "mkr-kursaj",
            "name": "мкр 283 квартал",
            "lat": 42.2963,
            "lon": 69.5269,
            "zoom": 15,
            "hasChildren": false,
            "hasComplexes": false,
            "hasStreet": false,
            "isBigCity": false,
            "type": "microdistrict",
            "parentId": 386,
            "level": 5,
            "children": []
          },
          {
            "id": 3041,
            "alias": "mkr-agroprom-",
            "name": "мкр Агропром ",
            "lat": 42.34,
            "lon": 69.5631,
            "zoom": 15,
            "hasChildren": false,
            "hasComplexes": false,
            "hasStreet": false,
            "isBigCity": false,
            "type": "microdistrict",
            "parentId": 386,
            "level": 5,
            "children": []
          },
          {
            "id": 3639,
            "alias": "mkr-akjar",
            "name": "мкр Акжар",
            "lat": 42.2291,
            "lon": 69.4967,
            "zoom": 15,
            "hasChildren": false,
            "hasComplexes": false,
            "hasStreet": false,
            "isBigCity": false,
            "type": "microdistrict",
            "parentId": 386,
            "level": 4,
            "children": []
          },
          {
            "id": 2989,
            "alias": "mkr-akniet",
            "name": "мкр Акниет",
            "lat": 42.3608,
            "lon": 69.5297,
            "zoom": 15,
            "hasChildren": false,
            "hasComplexes": false,
            "hasStreet": false,
            "isBigCity": false,
            "type": "microdistrict",
            "parentId": 386,
            "level": 5,
            "children": []
          },
          {
            "id": 2981,
            "alias": "mkr-zhajlau-",
            "name": "мкр Жайлау ",
            "lat": 42.3376,
            "lon": 69.5403,
            "zoom": 15,
            "hasChildren": false,
            "hasComplexes": false,
            "hasStreet": false,
            "isBigCity": false,
            "type": "microdistrict",
            "parentId": 386,
            "level": 5,
            "children": []
          },
          {
            "id": 3035,
            "alias": "mkr-zhanatalap-",
            "name": "мкр Жанаталап ",
            "lat": 42.3527,
            "lon": 69.4296,
            "zoom": 15,
            "hasChildren": false,
            "hasComplexes": false,
            "hasStreet": false,
            "isBigCity": false,
            "type": "microdistrict",
            "parentId": 386,
            "level": 5,
            "children": []
          },
          {
            "id": 3043,
            "alias": "mkr-zhideli",
            "name": "мкр Жидели",
            "lat": 42.3696,
            "lon": 69.4539,
            "zoom": 15,
            "hasChildren": false,
            "hasComplexes": false,
            "hasStreet": false,
            "isBigCity": false,
            "type": "microdistrict",
            "parentId": 386,
            "level": 5,
            "children": []
          },
          {
            "id": 2991,
            "alias": "mkr-igilik",
            "name": "мкр Игилик",
            "lat": 42.3475,
            "lon": 69.4806,
            "zoom": 15,
            "hasChildren": false,
            "hasComplexes": false,
            "hasStreet": false,
            "isBigCity": false,
            "type": "microdistrict",
            "parentId": 386,
            "level": 5,
            "children": []
          },
          {
            "id": 3420,
            "alias": "mkr-kazygurt",
            "name": "мкр Казыгурт",
            "lat": 42.2921,
            "lon": 69.5427,
            "zoom": 14,
            "hasChildren": false,
            "hasComplexes": false,
            "hasStreet": false,
            "isBigCity": false,
            "type": "microdistrict",
            "parentId": 386,
            "level": 4,
            "children": []
          },
          {
            "id": 3059,
            "alias": "mkr-katyn-kopr",
            "name": "мкр Катын копр",
            "lat": 42.3504,
            "lon": 69.5505,
            "zoom": 15,
            "hasChildren": false,
            "hasComplexes": false,
            "hasStreet": false,
            "isBigCity": false,
            "type": "microdistrict",
            "parentId": 386,
            "level": 5,
            "children": []
          },
          {
            "id": 4182,
            "alias": "mkr_nurshyak",
            "name": "мкр Нуршуак",
            "lat": 0,
            "lon": 0,
            "zoom": 0,
            "hasChildren": false,
            "hasComplexes": false,
            "hasStreet": true,
            "isBigCity": false,
            "type": "microdistrict",
            "parentId": 386,
            "level": 4,
            "children": []
          },
          {
            "id": 3051,
            "alias": "mkr-samal-1",
            "name": "мкр Самал-1",
            "lat": 42.3525,
            "lon": 69.5865,
            "zoom": 15,
            "hasChildren": false,
            "hasComplexes": false,
            "hasStreet": false,
            "isBigCity": false,
            "type": "microdistrict",
            "parentId": 386,
            "level": 5,
            "children": []
          },
          {
            "id": 3055,
            "alias": "mkr-samal-2",
            "name": "мкр Самал-2",
            "lat": 42.3647,
            "lon": 69.5951,
            "zoom": 15,
            "hasChildren": false,
            "hasComplexes": false,
            "hasStreet": false,
            "isBigCity": false,
            "type": "microdistrict",
            "parentId": 386,
            "level": 5,
            "children": []
          },
          {
            "id": 3291,
            "alias": "mkr-samal-3",
            "name": "мкр Самал-3",
            "lat": 42.3632,
            "lon": 69.5575,
            "zoom": 15,
            "hasChildren": false,
            "hasComplexes": false,
            "hasStreet": false,
            "isBigCity": false,
            "type": "microdistrict",
            "parentId": 386,
            "level": 5,
            "children": []
          },
          {
            "id": 3057,
            "alias": "mkr-severozapad",
            "name": "мкр Северо-Запад",
            "lat": 42.3729,
            "lon": 69.5832,
            "zoom": 15,
            "hasChildren": false,
            "hasComplexes": false,
            "hasStreet": false,
            "isBigCity": false,
            "type": "microdistrict",
            "parentId": 386,
            "level": 5,
            "children": []
          },
          {
            "id": 3027,
            "alias": "mkr-yntymak-",
            "name": "мкр Ынтымак ",
            "lat": 42.3719,
            "lon": 69.5097,
            "zoom": 15,
            "hasChildren": false,
            "hasComplexes": false,
            "hasStreet": false,
            "isBigCity": false,
            "type": "microdistrict",
            "parentId": 386,
            "level": 5,
            "children": []
          }
        ]
      },
      {
        "id": 387,
        "alias": "shymkent-al-farabijskij",
        "name": "Аль-Фарабийский р-н",
        "lat": 42.3227,
        "lon": 69.6201,
        "zoom": 14,
        "type": "district",
        "hasComplexes": false,
        "label": "Все микрорайоны",
        "selected": true,
        "children": [
          {
            "id": 3039,
            "alias": "mkr-bam-",
            "name": "мкр БАМ ",
            "lat": 42.3532,
            "lon": 69.6245,
            "zoom": 15,
            "hasChildren": false,
            "hasComplexes": false,
            "hasStreet": false,
            "isBigCity": false,
            "type": "microdistrict",
            "parentId": 387,
            "level": 5,
            "children": []
          },
          {
            "id": 3019,
            "alias": "mkr-verxnij-otyrar",
            "name": "мкр Верхний Отырар",
            "lat": 42.3437,
            "lon": 69.6219,
            "zoom": 15,
            "hasChildren": false,
            "hasComplexes": false,
            "hasStreet": false,
            "isBigCity": false,
            "type": "microdistrict",
            "parentId": 387,
            "level": 5,
            "children": []
          },
          {
            "id": 3061,
            "alias": "mkr-malyj-samal",
            "name": "мкр Малый Самал",
            "lat": 42.3439,
            "lon": 69.5983,
            "zoom": 15,
            "hasChildren": false,
            "hasComplexes": false,
            "hasStreet": false,
            "isBigCity": false,
            "type": "microdistrict",
            "parentId": 387,
            "level": 5,
            "children": []
          },
          {
            "id": 3033,
            "alias": "mkr-nauryz-",
            "name": "мкр Наурыз ",
            "lat": 42.3509,
            "lon": 69.6057,
            "zoom": 15,
            "hasChildren": false,
            "hasComplexes": false,
            "hasStreet": false,
            "isBigCity": false,
            "type": "microdistrict",
            "parentId": 387,
            "level": 5,
            "children": []
          },
          {
            "id": 3049,
            "alias": "mkr-nizhnij-otyrar",
            "name": "мкр Нижний отырар",
            "lat": 42.3472,
            "lon": 69.6158,
            "zoom": 15,
            "hasChildren": false,
            "hasComplexes": false,
            "hasStreet": false,
            "isBigCity": false,
            "type": "microdistrict",
            "parentId": 387,
            "level": 5,
            "children": []
          },
          {
            "id": 3025,
            "alias": "mkr-saule-",
            "name": "мкр Сауле ",
            "lat": 42.2784,
            "lon": 69.5714,
            "zoom": 15,
            "hasChildren": false,
            "hasComplexes": false,
            "hasStreet": false,
            "isBigCity": false,
            "type": "microdistrict",
            "parentId": 387,
            "level": 5,
            "children": []
          }
        ]
      },
      {
        "id": 388,
        "alias": "shymkent-enbekshinskij",
        "name": "Енбекшинский р-н",
        "lat": 42.3126,
        "lon": 69.6319,
        "zoom": 14,
        "type": "district",
        "hasComplexes": false,
        "label": "Все микрорайоны",
        "selected": true,
        "children": [
          {
            "id": 2997,
            "alias": "mkr-11-j-mikrorajon",
            "name": "11-й микрорайон",
            "lat": 42.3222,
            "lon": 69.6378,
            "zoom": 15,
            "hasChildren": false,
            "hasComplexes": false,
            "hasStreet": false,
            "isBigCity": false,
            "type": "microdistrict",
            "parentId": 388,
            "level": 5,
            "children": []
          },
          {
            "id": 3003,
            "alias": "12-j-mikrorajon",
            "name": "12-й микрорайон",
            "lat": 42.3309,
            "lon": 69.6422,
            "zoom": 15,
            "hasChildren": false,
            "hasComplexes": false,
            "hasStreet": false,
            "isBigCity": false,
            "type": "microdistrict",
            "parentId": 388,
            "level": 5,
            "children": []
          },
          {
            "id": 3015,
            "alias": "15-j-mikrorajon",
            "name": "15-й микрорайон",
            "lat": 42.3317,
            "lon": 69.6326,
            "zoom": 15,
            "hasChildren": false,
            "hasComplexes": false,
            "hasStreet": false,
            "isBigCity": false,
            "type": "microdistrict",
            "parentId": 388,
            "level": 5,
            "children": []
          },
          {
            "id": 3001,
            "alias": "mkr-16-j-mikrorajon",
            "name": "16-й микрорайон",
            "lat": 42.3324,
            "lon": 69.6387,
            "zoom": 15,
            "hasChildren": false,
            "hasComplexes": false,
            "hasStreet": false,
            "isBigCity": false,
            "type": "microdistrict",
            "parentId": 388,
            "level": 5,
            "children": []
          },
          {
            "id": 2993,
            "alias": "mkr-17-j-mikrorajon",
            "name": "17-й микрорайон",
            "lat": 42.3351,
            "lon": 69.6333,
            "zoom": 15,
            "hasChildren": false,
            "hasComplexes": false,
            "hasStreet": false,
            "isBigCity": false,
            "type": "microdistrict",
            "parentId": 388,
            "level": 5,
            "children": []
          },
          {
            "id": 2995,
            "alias": "mkr-18-j-mikrorajon",
            "name": "18-й микрорайон",
            "lat": 42.3397,
            "lon": 69.6261,
            "zoom": 15,
            "hasChildren": false,
            "hasComplexes": false,
            "hasStreet": false,
            "isBigCity": false,
            "type": "microdistrict",
            "parentId": 388,
            "level": 5,
            "children": []
          },
          {
            "id": 4140,
            "alias": "193-j-kvartal",
            "name": "193-й квартал",
            "lat": 0,
            "lon": 0,
            "zoom": 0,
            "hasChildren": false,
            "hasComplexes": false,
            "hasStreet": false,
            "isBigCity": false,
            "type": "microdistrict",
            "parentId": 388,
            "level": 4,
            "children": []
          },
          {
            "id": 2983,
            "alias": "mkr-badam-1",
            "name": "мкр Бадам-1",
            "lat": 42.2674,
            "lon": 69.5958,
            "zoom": 15,
            "hasChildren": false,
            "hasComplexes": false,
            "hasStreet": false,
            "isBigCity": false,
            "type": "microdistrict",
            "parentId": 388,
            "level": 5,
            "children": []
          },
          {
            "id": 3007,
            "alias": "mkr-vostok-",
            "name": "мкр Восток ",
            "lat": 42.3373,
            "lon": 69.643,
            "zoom": 15,
            "hasChildren": false,
            "hasComplexes": false,
            "hasStreet": false,
            "isBigCity": false,
            "type": "microdistrict",
            "parentId": 388,
            "level": 5,
            "children": []
          },
          {
            "id": 3067,
            "alias": "mkr-kok-saj-1",
            "name": "мкр Кок сай 1",
            "lat": 42.2935,
            "lon": 69.6097,
            "zoom": 15,
            "hasChildren": false,
            "hasComplexes": false,
            "hasStreet": false,
            "isBigCity": false,
            "type": "microdistrict",
            "parentId": 388,
            "level": 5,
            "children": []
          },
          {
            "id": 3069,
            "alias": "mkr-kok-saj-2",
            "name": "мкр Кок сай 2",
            "lat": 42.2959,
            "lon": 69.6135,
            "zoom": 15,
            "hasChildren": false,
            "hasComplexes": false,
            "hasStreet": false,
            "isBigCity": false,
            "type": "microdistrict",
            "parentId": 388,
            "level": 5,
            "children": []
          },
          {
            "id": 3071,
            "alias": "mkr-kok-saj-3",
            "name": "мкр Кок сай 3",
            "lat": 42.2993,
            "lon": 69.615,
            "zoom": 15,
            "hasChildren": false,
            "hasComplexes": false,
            "hasStreet": false,
            "isBigCity": false,
            "type": "microdistrict",
            "parentId": 388,
            "level": 5,
            "children": []
          },
          {
            "id": 3045,
            "alias": "mkr-mps-",
            "name": "мкр МПС ",
            "lat": 42.2915,
            "lon": 69.6056,
            "zoom": 15,
            "hasChildren": false,
            "hasComplexes": false,
            "hasStreet": false,
            "isBigCity": false,
            "type": "microdistrict",
            "parentId": 388,
            "level": 5,
            "children": []
          },
          {
            "id": 2985,
            "alias": "mkr-sajram-",
            "name": "мкр Сайрам ",
            "lat": 42.3425,
            "lon": 69.6367,
            "zoom": 15,
            "hasChildren": false,
            "hasComplexes": false,
            "hasStreet": false,
            "isBigCity": false,
            "type": "microdistrict",
            "parentId": 388,
            "level": 5,
            "children": []
          },
          {
            "id": 3009,
            "alias": "mkr-sever-",
            "name": "мкр Север ",
            "lat": 42.3421,
            "lon": 69.6419,
            "zoom": 15,
            "hasChildren": false,
            "hasComplexes": false,
            "hasStreet": false,
            "isBigCity": false,
            "type": "microdistrict",
            "parentId": 388,
            "level": 5,
            "children": []
          },
          {
            "id": 3031,
            "alias": "mkr-severovostok",
            "name": "мкр Северо-Восток",
            "lat": 42.3504,
            "lon": 69.6367,
            "zoom": 15,
            "hasChildren": false,
            "hasComplexes": false,
            "hasStreet": false,
            "isBigCity": false,
            "type": "microdistrict",
            "parentId": 388,
            "level": 5,
            "children": []
          },